[
  {"code": "SAU", "name": "Saudi Arabia", "region_id": "middle_east", "production_mbpd": 10.5, "consumption_mbpd": 3.1, "refining_capacity_mbpd": 2.9, "strategic_reserves_mb": 0, "reserve_release_rate_mbpd": 0, "is_refining_hub": false, "domestic_priority_ratio": 0.3, "longitude": 45.08, "latitude": 23.89},
  {"code": "RUS", "name": "Russia", "region_id": "cis", "production_mbpd": 10.8, "consumption_mbpd": 3.5, "refining_capacity_mbpd": 6.2, "strategic_reserves_mb": 0, "reserve_release_rate_mbpd": 0, "is_refining_hub": true, "domestic_priority_ratio": 0.35, "longitude": 37.62, "latitude": 55.75},
  {"code": "USA", "name": "United States", "region_id": "north_america", "production_mbpd": 12.9, "consumption_mbpd": 20.0, "refining_capacity_mbpd": 18.1, "strategic_reserves_mb": 372, "reserve_release_rate_mbpd": 4.4, "is_refining_hub": true, "domestic_priority_ratio": 0.6, "longitude": -95.71, "latitude": 37.09},
  {"code": "IRQ", "name": "Iraq", "region_id": "middle_east", "production_mbpd": 4.5, "consumption_mbpd": 0.8, "refining_capacity_mbpd": 0.9, "strategic_reserves_mb": 0, "reserve_release_rate_mbpd": 0, "is_refining_hub": false, "domestic_priority_ratio": 0.2, "longitude": 44.37, "latitude": 33.31},
  {"code": "CAN", "name": "Canada", "region_id": "north_america", "production_mbpd": 5.6, "consumption_mbpd": 2.3, "refining_capacity_mbpd": 1.9, "strategic_reserves_mb": 0, "reserve_release_rate_mbpd": 0, "is_refining_hub": false, "domestic_priority_ratio": 0.4, "longitude": -106.35, "latitude": 56.13},
  {"code": "CHN", "name": "China", "region_id": "asia_pacific", "production_mbpd": 4.1, "consumption_mbpd": 15.4, "refining_capacity_mbpd": 17.5, "strategic_reserves_mb": 950, "reserve_release_rate_mbpd": 0.5, "is_refining_hub": true, "domestic_priority_ratio": 0.7, "longitude": 116.41, "latitude": 39.90},
  {"code": "ARE", "name": "United Arab Emirates", "region_id": "middle_east", "production_mbpd": 3.4, "consumption_mbpd": 0.9, "refining_capacity_mbpd": 1.1, "strategic_reserves_mb": 0, "reserve_release_rate_mbpd": 0, "is_refining_hub": false, "domestic_priority_ratio": 0.25, "longitude": 54.37, "latitude": 24.45},
  {"code": "IRN", "name": "Iran", "region_id": "middle_east", "production_mbpd": 3.8, "consumption_mbpd": 1.8, "refining_capacity_mbpd": 2.2, "strategic_reserves_mb": 0, "reserve_release_rate_mbpd": 0, "is_refining_hub": false, "domestic_priority_ratio": 0.45, "longitude": 51.39, "latitude": 35.69},
  {"code": "KWT", "name": "Kuwait", "region_id": "middle_east", "production_mbpd": 2.7, "consumption_mbpd": 0.4, "refining_capacity_mbpd": 0.7, "strategic_reserves_mb": 0, "reserve_release_rate_mbpd": 0, "is_refining_hub": false, "domestic_priority_ratio": 0.15, "longitude": 47.98, "latitude": 29.38},
  {"code": "BRA", "name": "Brazil", "region_id": "latin_america", "production_mbpd": 3.4, "consumption_mbpd": 2.9, "refining_capacity_mbpd": 2.3, "strategic_reserves_mb": 0, "reserve_release_rate_mbpd": 0, "is_refining_hub": false, "domestic_priority_ratio": 0.5, "longitude": -47.87, "latitude": -15.79},
  {"code": "NOR", "name": "Norway", "region_id": "europe", "production_mbpd": 1.8, "consumption_mbpd": 0.2, "refining_capacity_mbpd": 0.3, "strategic_reserves_mb": 0, "reserve_release_rate_mbpd": 0, "is_refining_hub": false, "domestic_priority_ratio": 0.15, "longitude": 10.75, "latitude": 59.91},
  {"code": "NGA", "name": "Nigeria", "region_id": "sub_saharan_africa", "production_mbpd": 1.5, "consumption_mbpd": 0.5, "refining_capacity_mbpd": 0.4, "strategic_reserves_mb": 0, "reserve_release_rate_mbpd": 0, "is_refining_hub": false, "domestic_priority_ratio": 0.3, "longitude": 7.49, "latitude": 9.06},
  {"code": "AGO", "name": "Angola", "region_id": "sub_saharan_africa", "production_mbpd": 1.2, "consumption_mbpd": 0.3, "refining_capacity_mbpd": 0.1, "strategic_reserves_mb": 0, "reserve_release_rate_mbpd": 0, "is_refining_hub": false, "domestic_priority_ratio": 0.2, "longitude": 13.23, "latitude": -8.84},
  {"code": "DZA", "name": "Algeria", "region_id": "north_africa", "production_mbpd": 1.0, "consumption_mbpd": 0.4, "refining_capacity_mbpd": 0.5, "strategic_reserves_mb": 0, "reserve_release_rate_mbpd": 0, "is_refining_hub": false, "domestic_priority_ratio": 0.35, "longitude": 3.06, "latitude": 36.75},
  {"code": "LBY", "name": "Libya", "region_id": "north_africa", "production_mbpd": 1.2, "consumption_mbpd": 0.2, "refining_capacity_mbpd": 0.4, "strategic_reserves_mb": 0, "reserve_release_rate_mbpd": 0, "is_refining_hub": false, "domestic_priority_ratio": 0.2, "longitude": 13.18, "latitude": 32.90},
  {"code": "KAZ", "name": "Kazakhstan", "region_id": "cis", "production_mbpd": 1.8, "consumption_mbpd": 0.3, "refining_capacity_mbpd": 0.4, "strategic_reserves_mb": 0, "reserve_release_rate_mbpd": 0, "is_refining_hub": false, "domestic_priority_ratio": 0.2, "longitude": 71.47, "latitude": 51.17},
  {"code": "MEX", "name": "Mexico", "region_id": "latin_america", "production_mbpd": 1.9, "consumption_mbpd": 1.8, "refining_capacity_mbpd": 1.6, "strategic_reserves_mb": 0, "reserve_release_rate_mbpd": 0, "is_refining_hub": false, "domestic_priority_ratio": 0.6, "longitude": -99.13, "latitude": 19.43},
  {"code": "VEN", "name": "Venezuela", "region_id": "latin_america", "production_mbpd": 0.7, "consumption_mbpd": 0.4, "refining_capacity_mbpd": 1.3, "strategic_reserves_mb": 0, "reserve_release_rate_mbpd": 0, "is_refining_hub": false, "domestic_priority_ratio": 0.5, "longitude": -66.90, "latitude": 10.49},
  {"code": "GBR", "name": "United Kingdom", "region_id": "europe", "production_mbpd": 0.8, "consumption_mbpd": 1.5, "refining_capacity_mbpd": 1.2, "strategic_reserves_mb": 15, "reserve_release_rate_mbpd": 0.15, "is_refining_hub": false, "domestic_priority_ratio": 0.5, "longitude": -0.13, "latitude": 51.51},
  {"code": "DEU", "name": "Germany", "region_id": "europe", "production_mbpd": 0.04, "consumption_mbpd": 2.2, "refining_capacity_mbpd": 2.0, "strategic_reserves_mb": 245, "reserve_release_rate_mbpd": 0.5, "is_refining_hub": true, "domestic_priority_ratio": 0.8, "longitude": 13.40, "latitude": 52.52},
  {"code": "FRA", "name": "France", "region_id": "europe", "production_mbpd": 0.02, "consumption_mbpd": 1.6, "refining_capacity_mbpd": 1.2, "strategic_reserves_mb": 180, "reserve_release_rate_mbpd": 0.4, "is_refining_hub": false, "domestic_priority_ratio": 0.8, "longitude": 2.35, "latitude": 48.86},
  {"code": "ITA", "name": "Italy", "region_id": "europe", "production_mbpd": 0.1, "consumption_mbpd": 1.2, "refining_capacity_mbpd": 1.8, "strategic_reserves_mb": 140, "reserve_release_rate_mbpd": 0.3, "is_refining_hub": true, "domestic_priority_ratio": 0.8, "longitude": 12.50, "latitude": 41.90},
  {"code": "ESP", "name": "Spain", "region_id": "europe", "production_mbpd": 0.01, "consumption_mbpd": 1.2, "refining_capacity_mbpd": 1.4, "strategic_reserves_mb": 120, "reserve_release_rate_mbpd": 0.25, "is_refining_hub": false, "domestic_priority_ratio": 0.8, "longitude": -3.70, "latitude": 40.42},
  {"code": "NLD", "name": "Netherlands", "region_id": "europe", "production_mbpd": 0.02, "consumption_mbpd": 0.8, "refining_capacity_mbpd": 1.3, "strategic_reserves_mb": 40, "reserve_release_rate_mbpd": 0.1, "is_refining_hub": true, "domestic_priority_ratio": 0.5, "longitude": 4.90, "latitude": 52.37},
  {"code": "JPN", "name": "Japan", "region_id": "asia_pacific", "production_mbpd": 0.01, "consumption_mbpd": 3.3, "refining_capacity_mbpd": 3.5, "strategic_reserves_mb": 528, "reserve_release_rate_mbpd": 1.5, "is_refining_hub": true, "domestic_priority_ratio": 0.9, "longitude": 139.69, "latitude": 35.69},
  {"code": "KOR", "name": "South Korea", "region_id": "asia_pacific", "production_mbpd": 0.01, "consumption_mbpd": 2.7, "refining_capacity_mbpd": 3.4, "strategic_reserves_mb": 297, "reserve_release_rate_mbpd": 0.7, "is_refining_hub": true, "domestic_priority_ratio": 0.9, "longitude": 126.98, "latitude": 37.57},
  {"code": "IND", "name": "India", "region_id": "south_asia", "production_mbpd": 0.8, "consumption_mbpd": 5.2, "refining_capacity_mbpd": 5.0, "strategic_reserves_mb": 39, "reserve_release_rate_mbpd": 0.1, "is_refining_hub": true, "domestic_priority_ratio": 0.8, "longitude": 77.21, "latitude": 28.61},
  {"code": "SGP", "name": "Singapore", "region_id": "asia_pacific", "production_mbpd": 0.0, "consumption_mbpd": 1.4, "refining_capacity_mbpd": 1.5, "strategic_reserves_mb": 65, "reserve_release_rate_mbpd": 0.15, "is_refining_hub": true, "domestic_priority_ratio": 0.5, "longitude": 103.85, "latitude": 1.35},
  {"code": "TUR", "name": "Turkey", "region_id": "europe", "production_mbpd": 0.07, "consumption_mbpd": 1.0, "refining_capacity_mbpd": 0.6, "strategic_reserves_mb": 50, "reserve_release_rate_mbpd": 0.1, "is_refining_hub": false, "domestic_priority_ratio": 0.7, "longitude": 32.86, "latitude": 39.93},
  {"code": "TWN", "name": "Taiwan", "region_id": "asia_pacific", "production_mbpd": 0.0, "consumption_mbpd": 1.0, "refining_capacity_mbpd": 1.2, "strategic_reserves_mb": 45, "reserve_release_rate_mbpd": 0.1, "is_refining_hub": true, "domestic_priority_ratio": 0.9, "longitude": 121.56, "latitude": 25.03},
  {"code": "THA", "name": "Thailand", "region_id": "asia_pacific", "production_mbpd": 0.4, "consumption_mbpd": 1.2, "refining_capacity_mbpd": 1.2, "strategic_reserves_mb": 20, "reserve_release_rate_mbpd": 0.05, "is_refining_hub": false, "domestic_priority_ratio": 0.6, "longitude": 100.52, "latitude": 13.76},
  {"code": "AUS", "name": "Australia", "region_id": "asia_pacific", "production_mbpd": 0.3, "consumption_mbpd": 1.0, "refining_capacity_mbpd": 0.5, "strategic_reserves_mb": 60, "reserve_release_rate_mbpd": 0.1, "is_refining_hub": false, "domestic_priority_ratio": 0.5, "longitude": 149.13, "latitude": -35.28},
  {"code": "POL", "name": "Poland", "region_id": "europe", "production_mbpd": 0.02, "consumption_mbpd": 0.6, "refining_capacity_mbpd": 0.5, "strategic_reserves_mb": 90, "reserve_release_rate_mbpd": 0.15, "is_refining_hub": false, "domestic_priority_ratio": 0.8, "longitude": 21.01, "latitude": 52.23},
  {"code": "GRC", "name": "Greece", "region_id": "europe", "production_mbpd": 0.005, "consumption_mbpd": 0.3, "refining_capacity_mbpd": 0.4, "strategic_reserves_mb": 30, "reserve_release_rate_mbpd": 0.05, "is_refining_hub": false, "domestic_priority_ratio": 0.8, "longitude": 23.73, "latitude": 37.98},
  {"code": "EGY", "name": "Egypt", "region_id": "north_africa", "production_mbpd": 0.6, "consumption_mbpd": 0.7, "refining_capacity_mbpd": 0.7, "strategic_reserves_mb": 0, "reserve_release_rate_mbpd": 0, "is_refining_hub": false, "domestic_priority_ratio": 0.7, "longitude": 31.24, "latitude": 30.04},
  {"code": "IDN", "name": "Indonesia", "region_id": "asia_pacific", "production_mbpd": 0.6, "consumption_mbpd": 1.7, "refining_capacity_mbpd": 1.1, "strategic_reserves_mb": 0, "reserve_release_rate_mbpd": 0, "is_refining_hub": false, "domestic_priority_ratio": 0.6, "longitude": 106.85, "latitude": -6.21},
  {"code": "COL", "name": "Colombia", "region_id": "latin_america", "production_mbpd": 0.8, "consumption_mbpd": 0.3, "refining_capacity_mbpd": 0.4, "strategic_reserves_mb": 0, "reserve_release_rate_mbpd": 0, "is_refining_hub": false, "domestic_priority_ratio": 0.35, "longitude": -74.07, "latitude": 4.71},
  {"code": "QAT", "name": "Qatar", "region_id": "middle_east", "production_mbpd": 1.8, "consumption_mbpd": 0.3, "refining_capacity_mbpd": 0.3, "strategic_reserves_mb": 0, "reserve_release_rate_mbpd": 0, "is_refining_hub": false, "domestic_priority_ratio": 0.2, "longitude": 51.53, "latitude": 25.29},
  {"code": "OMN", "name": "Oman", "region_id": "middle_east", "production_mbpd": 1.0, "consumption_mbpd": 0.2, "refining_capacity_mbpd": 0.2, "strategic_reserves_mb": 0, "reserve_release_rate_mbpd": 0, "is_refining_hub": false, "domestic_priority_ratio": 0.2, "longitude": 58.54, "latitude": 23.59}
]
