[
  {"code": "SAU", "name": "Saudi Arabia", "region_id": "middle_east", "production_mbpd": 9.60, "consumption_mbpd": 3.05, "refining_capacity_mbpd": 2.90, "strategic_reserves_mb": 0, "reserve_release_rate_mbpd": 0, "is_refining_hub": false, "domestic_priority_ratio": 0.30, "longitude": 45.08, "latitude": 23.89},
  {"code": "RUS", "name": "Russia", "region_id": "cis", "production_mbpd": 10.78, "consumption_mbpd": 3.55, "refining_capacity_mbpd": 6.20, "strategic_reserves_mb": 0, "reserve_release_rate_mbpd": 0, "is_refining_hub": true, "domestic_priority_ratio": 0.35, "longitude": 37.62, "latitude": 55.75},
  {"code": "USA", "name": "United States", "region_id": "north_america", "production_mbpd": 12.93, "consumption_mbpd": 20.00, "refining_capacity_mbpd": 18.10, "strategic_reserves_mb": 372, "reserve_release_rate_mbpd": 4.40, "is_refining_hub": true, "domestic_priority_ratio": 0.60, "longitude": -95.71, "latitude": 37.09},
  {"code": "IRQ", "name": "Iraq", "region_id": "middle_east", "production_mbpd": 4.42, "consumption_mbpd": 0.80, "refining_capacity_mbpd": 0.90, "strategic_reserves_mb": 0, "reserve_release_rate_mbpd": 0, "is_refining_hub": false, "domestic_priority_ratio": 0.20, "longitude": 44.37, "latitude": 33.31},
  {"code": "CAN", "name": "Canada", "region_id": "north_america", "production_mbpd": 5.68, "consumption_mbpd": 2.33, "refining_capacity_mbpd": 1.90, "strategic_reserves_mb": 0, "reserve_release_rate_mbpd": 0, "is_refining_hub": false, "domestic_priority_ratio": 0.40, "longitude": -106.35, "latitude": 56.13},
  {"code": "CHN", "name": "China", "region_id": "asia_pacific", "production_mbpd": 4.19, "consumption_mbpd": 16.60, "refining_capacity_mbpd": 18.50, "strategic_reserves_mb": 950, "reserve_release_rate_mbpd": 0.50, "is_refining_hub": true, "domestic_priority_ratio": 0.70, "longitude": 116.41, "latitude": 39.90},
  {"code": "ARE", "name": "United Arab Emirates", "region_id": "middle_east", "production_mbpd": 3.36, "consumption_mbpd": 0.90, "refining_capacity_mbpd": 1.10, "strategic_reserves_mb": 0, "reserve_release_rate_mbpd": 0, "is_refining_hub": false, "domestic_priority_ratio": 0.25, "longitude": 54.37, "latitude": 24.45},
  {"code": "IRN", "name": "Iran", "region_id": "middle_east", "production_mbpd": 3.40, "consumption_mbpd": 1.80, "refining_capacity_mbpd": 2.20, "strategic_reserves_mb": 0, "reserve_release_rate_mbpd": 0, "is_refining_hub": false, "domestic_priority_ratio": 0.45, "longitude": 51.39, "latitude": 35.69},
  {"code": "KWT", "name": "Kuwait", "region_id": "middle_east", "production_mbpd": 2.59, "consumption_mbpd": 0.45, "refining_capacity_mbpd": 0.70, "strategic_reserves_mb": 0, "reserve_release_rate_mbpd": 0, "is_refining_hub": false, "domestic_priority_ratio": 0.15, "longitude": 47.98, "latitude": 29.38},
  {"code": "BRA", "name": "Brazil", "region_id": "latin_america", "production_mbpd": 3.40, "consumption_mbpd": 3.00, "refining_capacity_mbpd": 2.30, "strategic_reserves_mb": 0, "reserve_release_rate_mbpd": 0, "is_refining_hub": false, "domestic_priority_ratio": 0.50, "longitude": -47.87, "latitude": -15.79},
  {"code": "NOR", "name": "Norway", "region_id": "europe", "production_mbpd": 1.82, "consumption_mbpd": 0.22, "refining_capacity_mbpd": 0.30, "strategic_reserves_mb": 0, "reserve_release_rate_mbpd": 0, "is_refining_hub": false, "domestic_priority_ratio": 0.15, "longitude": 10.75, "latitude": 59.91},
  {"code": "NGA", "name": "Nigeria", "region_id": "sub_saharan_africa", "production_mbpd": 1.53, "consumption_mbpd": 0.45, "refining_capacity_mbpd": 0.65, "strategic_reserves_mb": 0, "reserve_release_rate_mbpd": 0, "is_refining_hub": false, "domestic_priority_ratio": 0.30, "longitude": 7.49, "latitude": 9.06},
  {"code": "AGO", "name": "Angola", "region_id": "sub_saharan_africa", "production_mbpd": 1.10, "consumption_mbpd": 0.28, "refining_capacity_mbpd": 0.10, "strategic_reserves_mb": 0, "reserve_release_rate_mbpd": 0, "is_refining_hub": false, "domestic_priority_ratio": 0.20, "longitude": 13.23, "latitude": -8.84},
  {"code": "DZA", "name": "Algeria", "region_id": "north_africa", "production_mbpd": 1.02, "consumption_mbpd": 0.40, "refining_capacity_mbpd": 0.50, "strategic_reserves_mb": 0, "reserve_release_rate_mbpd": 0, "is_refining_hub": false, "domestic_priority_ratio": 0.35, "longitude": 3.06, "latitude": 36.75},
  {"code": "LBY", "name": "Libya", "region_id": "north_africa", "production_mbpd": 1.17, "consumption_mbpd": 0.22, "refining_capacity_mbpd": 0.40, "strategic_reserves_mb": 0, "reserve_release_rate_mbpd": 0, "is_refining_hub": false, "domestic_priority_ratio": 0.20, "longitude": 13.18, "latitude": 32.90},
  {"code": "KAZ", "name": "Kazakhstan", "region_id": "cis", "production_mbpd": 1.87, "consumption_mbpd": 0.30, "refining_capacity_mbpd": 0.40, "strategic_reserves_mb": 0, "reserve_release_rate_mbpd": 0, "is_refining_hub": false, "domestic_priority_ratio": 0.20, "longitude": 71.47, "latitude": 51.17},
  {"code": "MEX", "name": "Mexico", "region_id": "latin_america", "production_mbpd": 1.87, "consumption_mbpd": 1.85, "refining_capacity_mbpd": 1.60, "strategic_reserves_mb": 0, "reserve_release_rate_mbpd": 0, "is_refining_hub": false, "domestic_priority_ratio": 0.60, "longitude": -99.13, "latitude": 19.43},
  {"code": "VEN", "name": "Venezuela", "region_id": "latin_america", "production_mbpd": 0.73, "consumption_mbpd": 0.40, "refining_capacity_mbpd": 1.30, "strategic_reserves_mb": 0, "reserve_release_rate_mbpd": 0, "is_refining_hub": false, "domestic_priority_ratio": 0.50, "longitude": -66.90, "latitude": 10.49},
  {"code": "GBR", "name": "United Kingdom", "region_id": "europe", "production_mbpd": 0.68, "consumption_mbpd": 1.38, "refining_capacity_mbpd": 1.20, "strategic_reserves_mb": 15, "reserve_release_rate_mbpd": 0.15, "is_refining_hub": false, "domestic_priority_ratio": 0.50, "longitude": -0.13, "latitude": 51.51},
  {"code": "DEU", "name": "Germany", "region_id": "europe", "production_mbpd": 0.04, "consumption_mbpd": 2.10, "refining_capacity_mbpd": 2.00, "strategic_reserves_mb": 245, "reserve_release_rate_mbpd": 0.50, "is_refining_hub": true, "domestic_priority_ratio": 0.80, "longitude": 13.40, "latitude": 52.52},
  {"code": "FRA", "name": "France", "region_id": "europe", "production_mbpd": 0.02, "consumption_mbpd": 1.53, "refining_capacity_mbpd": 1.10, "strategic_reserves_mb": 180, "reserve_release_rate_mbpd": 0.40, "is_refining_hub": false, "domestic_priority_ratio": 0.80, "longitude": 2.35, "latitude": 48.86},
  {"code": "ITA", "name": "Italy", "region_id": "europe", "production_mbpd": 0.10, "consumption_mbpd": 1.17, "refining_capacity_mbpd": 1.80, "strategic_reserves_mb": 140, "reserve_release_rate_mbpd": 0.30, "is_refining_hub": true, "domestic_priority_ratio": 0.80, "longitude": 12.50, "latitude": 41.90},
  {"code": "ESP", "name": "Spain", "region_id": "europe", "production_mbpd": 0.01, "consumption_mbpd": 1.20, "refining_capacity_mbpd": 1.40, "strategic_reserves_mb": 120, "reserve_release_rate_mbpd": 0.25, "is_refining_hub": false, "domestic_priority_ratio": 0.80, "longitude": -3.70, "latitude": 40.42},
  {"code": "NLD", "name": "Netherlands", "region_id": "europe", "production_mbpd": 0.02, "consumption_mbpd": 0.85, "refining_capacity_mbpd": 1.30, "strategic_reserves_mb": 40, "reserve_release_rate_mbpd": 0.10, "is_refining_hub": true, "domestic_priority_ratio": 0.50, "longitude": 4.90, "latitude": 52.37},
  {"code": "JPN", "name": "Japan", "region_id": "asia_pacific", "production_mbpd": 0.01, "consumption_mbpd": 3.20, "refining_capacity_mbpd": 3.30, "strategic_reserves_mb": 528, "reserve_release_rate_mbpd": 1.50, "is_refining_hub": true, "domestic_priority_ratio": 0.90, "longitude": 139.69, "latitude": 35.69},
  {"code": "KOR", "name": "South Korea", "region_id": "asia_pacific", "production_mbpd": 0.01, "consumption_mbpd": 2.75, "refining_capacity_mbpd": 3.40, "strategic_reserves_mb": 297, "reserve_release_rate_mbpd": 0.70, "is_refining_hub": true, "domestic_priority_ratio": 0.90, "longitude": 126.98, "latitude": 37.57},
  {"code": "IND", "name": "India", "region_id": "south_asia", "production_mbpd": 0.77, "consumption_mbpd": 5.40, "refining_capacity_mbpd": 5.40, "strategic_reserves_mb": 39, "reserve_release_rate_mbpd": 0.10, "is_refining_hub": true, "domestic_priority_ratio": 0.80, "longitude": 77.21, "latitude": 28.61},
  {"code": "SGP", "name": "Singapore", "region_id": "asia_pacific", "production_mbpd": 0.00, "consumption_mbpd": 1.40, "refining_capacity_mbpd": 1.50, "strategic_reserves_mb": 65, "reserve_release_rate_mbpd": 0.15, "is_refining_hub": true, "domestic_priority_ratio": 0.50, "longitude": 103.85, "latitude": 1.35},
  {"code": "TUR", "name": "Turkey", "region_id": "europe", "production_mbpd": 0.07, "consumption_mbpd": 1.05, "refining_capacity_mbpd": 0.60, "strategic_reserves_mb": 50, "reserve_release_rate_mbpd": 0.10, "is_refining_hub": false, "domestic_priority_ratio": 0.70, "longitude": 32.86, "latitude": 39.93},
  {"code": "TWN", "name": "Taiwan", "region_id": "asia_pacific", "production_mbpd": 0.00, "consumption_mbpd": 1.00, "refining_capacity_mbpd": 1.20, "strategic_reserves_mb": 45, "reserve_release_rate_mbpd": 0.10, "is_refining_hub": true, "domestic_priority_ratio": 0.90, "longitude": 121.56, "latitude": 25.03},
  {"code": "THA", "name": "Thailand", "region_id": "asia_pacific", "production_mbpd": 0.40, "consumption_mbpd": 1.20, "refining_capacity_mbpd": 1.20, "strategic_reserves_mb": 20, "reserve_release_rate_mbpd": 0.05, "is_refining_hub": false, "domestic_priority_ratio": 0.60, "longitude": 100.52, "latitude": 13.76},
  {"code": "AUS", "name": "Australia", "region_id": "asia_pacific", "production_mbpd": 0.30, "consumption_mbpd": 1.05, "refining_capacity_mbpd": 0.50, "strategic_reserves_mb": 60, "reserve_release_rate_mbpd": 0.10, "is_refining_hub": false, "domestic_priority_ratio": 0.50, "longitude": 149.13, "latitude": -35.28},
  {"code": "POL", "name": "Poland", "region_id": "europe", "production_mbpd": 0.02, "consumption_mbpd": 0.60, "refining_capacity_mbpd": 0.50, "strategic_reserves_mb": 90, "reserve_release_rate_mbpd": 0.15, "is_refining_hub": false, "domestic_priority_ratio": 0.80, "longitude": 21.01, "latitude": 52.23},
  {"code": "GRC", "name": "Greece", "region_id": "europe", "production_mbpd": 0.005, "consumption_mbpd": 0.28, "refining_capacity_mbpd": 0.40, "strategic_reserves_mb": 30, "reserve_release_rate_mbpd": 0.05, "is_refining_hub": false, "domestic_priority_ratio": 0.80, "longitude": 23.73, "latitude": 37.98},
  {"code": "EGY", "name": "Egypt", "region_id": "north_africa", "production_mbpd": 0.54, "consumption_mbpd": 0.68, "refining_capacity_mbpd": 0.70, "strategic_reserves_mb": 0, "reserve_release_rate_mbpd": 0, "is_refining_hub": false, "domestic_priority_ratio": 0.70, "longitude": 31.24, "latitude": 30.04},
  {"code": "IDN", "name": "Indonesia", "region_id": "asia_pacific", "production_mbpd": 0.63, "consumption_mbpd": 1.68, "refining_capacity_mbpd": 1.10, "strategic_reserves_mb": 0, "reserve_release_rate_mbpd": 0, "is_refining_hub": false, "domestic_priority_ratio": 0.60, "longitude": 106.85, "latitude": -6.21},
  {"code": "COL", "name": "Colombia", "region_id": "latin_america", "production_mbpd": 0.79, "consumption_mbpd": 0.35, "refining_capacity_mbpd": 0.40, "strategic_reserves_mb": 0, "reserve_release_rate_mbpd": 0, "is_refining_hub": false, "domestic_priority_ratio": 0.35, "longitude": -74.07, "latitude": 4.71},
  {"code": "QAT", "name": "Qatar", "region_id": "middle_east", "production_mbpd": 1.79, "consumption_mbpd": 0.30, "refining_capacity_mbpd": 0.30, "strategic_reserves_mb": 0, "reserve_release_rate_mbpd": 0, "is_refining_hub": false, "domestic_priority_ratio": 0.20, "longitude": 51.53, "latitude": 25.29},
  {"code": "OMN", "name": "Oman", "region_id": "middle_east", "production_mbpd": 1.04, "consumption_mbpd": 0.20, "refining_capacity_mbpd": 0.23, "strategic_reserves_mb": 0, "reserve_release_rate_mbpd": 0, "is_refining_hub": false, "domestic_priority_ratio": 0.20, "longitude": 58.54, "latitude": 23.59},
  {"code": "GUY", "name": "Guyana", "region_id": "latin_america", "production_mbpd": 0.39, "consumption_mbpd": 0.01, "refining_capacity_mbpd": 0.00, "strategic_reserves_mb": 0, "reserve_release_rate_mbpd": 0, "is_refining_hub": false, "domestic_priority_ratio": 0.05, "longitude": -58.16, "latitude": 6.80},
  {"code": "ARG", "name": "Argentina", "region_id": "latin_america", "production_mbpd": 0.70, "consumption_mbpd": 0.55, "refining_capacity_mbpd": 0.63, "strategic_reserves_mb": 0, "reserve_release_rate_mbpd": 0, "is_refining_hub": false, "domestic_priority_ratio": 0.55, "longitude": -58.38, "latitude": -34.60},
  {"code": "ECU", "name": "Ecuador", "region_id": "latin_america", "production_mbpd": 0.48, "consumption_mbpd": 0.24, "refining_capacity_mbpd": 0.18, "strategic_reserves_mb": 0, "reserve_release_rate_mbpd": 0, "is_refining_hub": false, "domestic_priority_ratio": 0.40, "longitude": -78.52, "latitude": -0.18},
  {"code": "AZE", "name": "Azerbaijan", "region_id": "cis", "production_mbpd": 0.57, "consumption_mbpd": 0.10, "refining_capacity_mbpd": 0.15, "strategic_reserves_mb": 0, "reserve_release_rate_mbpd": 0, "is_refining_hub": false, "domestic_priority_ratio": 0.20, "longitude": 49.87, "latitude": 40.41},
  {"code": "MYS", "name": "Malaysia", "region_id": "asia_pacific", "production_mbpd": 0.56, "consumption_mbpd": 0.65, "refining_capacity_mbpd": 0.56, "strategic_reserves_mb": 0, "reserve_release_rate_mbpd": 0, "is_refining_hub": false, "domestic_priority_ratio": 0.55, "longitude": 101.69, "latitude": 3.14},
  {"code": "ZAF", "name": "South Africa", "region_id": "sub_saharan_africa", "production_mbpd": 0.002, "consumption_mbpd": 0.55, "refining_capacity_mbpd": 0.50, "strategic_reserves_mb": 10, "reserve_release_rate_mbpd": 0.02, "is_refining_hub": false, "domestic_priority_ratio": 0.80, "longitude": 28.05, "latitude": -26.20},
  {"code": "BEL", "name": "Belgium", "region_id": "europe", "production_mbpd": 0.01, "consumption_mbpd": 0.60, "refining_capacity_mbpd": 0.80, "strategic_reserves_mb": 35, "reserve_release_rate_mbpd": 0.07, "is_refining_hub": true, "domestic_priority_ratio": 0.70, "longitude": 4.35, "latitude": 50.85},
  {"code": "SWE", "name": "Sweden", "region_id": "europe", "production_mbpd": 0.01, "consumption_mbpd": 0.30, "refining_capacity_mbpd": 0.42, "strategic_reserves_mb": 25, "reserve_release_rate_mbpd": 0.05, "is_refining_hub": false, "domestic_priority_ratio": 0.80, "longitude": 18.07, "latitude": 59.33},
  {"code": "PRT", "name": "Portugal", "region_id": "europe", "production_mbpd": 0.01, "consumption_mbpd": 0.22, "refining_capacity_mbpd": 0.33, "strategic_reserves_mb": 20, "reserve_release_rate_mbpd": 0.04, "is_refining_hub": false, "domestic_priority_ratio": 0.80, "longitude": -9.14, "latitude": 38.74},
  {"code": "AUT", "name": "Austria", "region_id": "europe", "production_mbpd": 0.01, "consumption_mbpd": 0.25, "refining_capacity_mbpd": 0.19, "strategic_reserves_mb": 20, "reserve_release_rate_mbpd": 0.04, "is_refining_hub": false, "domestic_priority_ratio": 0.80, "longitude": 16.37, "latitude": 48.21},
  {"code": "CZE", "name": "Czech Republic", "region_id": "europe", "production_mbpd": 0.01, "consumption_mbpd": 0.19, "refining_capacity_mbpd": 0.17, "strategic_reserves_mb": 25, "reserve_release_rate_mbpd": 0.05, "is_refining_hub": false, "domestic_priority_ratio": 0.80, "longitude": 14.42, "latitude": 50.08},
  {"code": "ROU", "name": "Romania", "region_id": "europe", "production_mbpd": 0.06, "consumption_mbpd": 0.20, "refining_capacity_mbpd": 0.24, "strategic_reserves_mb": 15, "reserve_release_rate_mbpd": 0.03, "is_refining_hub": false, "domestic_priority_ratio": 0.70, "longitude": 26.10, "latitude": 44.43},
  {"code": "HUN", "name": "Hungary", "region_id": "europe", "production_mbpd": 0.02, "consumption_mbpd": 0.15, "refining_capacity_mbpd": 0.16, "strategic_reserves_mb": 15, "reserve_release_rate_mbpd": 0.03, "is_refining_hub": false, "domestic_priority_ratio": 0.80, "longitude": 19.04, "latitude": 47.50},
  {"code": "FIN", "name": "Finland", "region_id": "europe", "production_mbpd": 0.01, "consumption_mbpd": 0.20, "refining_capacity_mbpd": 0.26, "strategic_reserves_mb": 20, "reserve_release_rate_mbpd": 0.04, "is_refining_hub": false, "domestic_priority_ratio": 0.80, "longitude": 24.94, "latitude": 60.17},
  {"code": "VNM", "name": "Vietnam", "region_id": "asia_pacific", "production_mbpd": 0.19, "consumption_mbpd": 0.50, "refining_capacity_mbpd": 0.33, "strategic_reserves_mb": 0, "reserve_release_rate_mbpd": 0, "is_refining_hub": false, "domestic_priority_ratio": 0.60, "longitude": 105.85, "latitude": 21.03},
  {"code": "PHL", "name": "Philippines", "region_id": "asia_pacific", "production_mbpd": 0.01, "consumption_mbpd": 0.45, "refining_capacity_mbpd": 0.28, "strategic_reserves_mb": 0, "reserve_release_rate_mbpd": 0, "is_refining_hub": false, "domestic_priority_ratio": 0.80, "longitude": 120.98, "latitude": 14.60},
  {"code": "PAK", "name": "Pakistan", "region_id": "south_asia", "production_mbpd": 0.08, "consumption_mbpd": 0.50, "refining_capacity_mbpd": 0.40, "strategic_reserves_mb": 0, "reserve_release_rate_mbpd": 0, "is_refining_hub": false, "domestic_priority_ratio": 0.70, "longitude": 73.04, "latitude": 33.69},
  {"code": "BHR", "name": "Bahrain", "region_id": "middle_east", "production_mbpd": 0.20, "consumption_mbpd": 0.06, "refining_capacity_mbpd": 0.27, "strategic_reserves_mb": 0, "reserve_release_rate_mbpd": 0, "is_refining_hub": false, "domestic_priority_ratio": 0.25, "longitude": 50.59, "latitude": 26.07},
  {"code": "GAB", "name": "Gabon", "region_id": "sub_saharan_africa", "production_mbpd": 0.20, "consumption_mbpd": 0.02, "refining_capacity_mbpd": 0.02, "strategic_reserves_mb": 0, "reserve_release_rate_mbpd": 0, "is_refining_hub": false, "domestic_priority_ratio": 0.10, "longitude": 9.45, "latitude": 0.39},
  {"code": "COG", "name": "Republic of the Congo", "region_id": "sub_saharan_africa", "production_mbpd": 0.27, "consumption_mbpd": 0.02, "refining_capacity_mbpd": 0.02, "strategic_reserves_mb": 0, "reserve_release_rate_mbpd": 0, "is_refining_hub": false, "domestic_priority_ratio": 0.10, "longitude": 15.28, "latitude": -4.27},
  {"code": "TTO", "name": "Trinidad and Tobago", "region_id": "latin_america", "production_mbpd": 0.06, "consumption_mbpd": 0.03, "refining_capacity_mbpd": 0.16, "strategic_reserves_mb": 0, "reserve_release_rate_mbpd": 0, "is_refining_hub": false, "domestic_priority_ratio": 0.40, "longitude": -61.50, "latitude": 10.50},
  {"code": "CHL", "name": "Chile", "region_id": "latin_america", "production_mbpd": 0.01, "consumption_mbpd": 0.35, "refining_capacity_mbpd": 0.22, "strategic_reserves_mb": 0, "reserve_release_rate_mbpd": 0, "is_refining_hub": false, "domestic_priority_ratio": 0.80, "longitude": -70.65, "latitude": -33.45},
  {"code": "PER", "name": "Peru", "region_id": "latin_america", "production_mbpd": 0.05, "consumption_mbpd": 0.22, "refining_capacity_mbpd": 0.20, "strategic_reserves_mb": 0, "reserve_release_rate_mbpd": 0, "is_refining_hub": false, "domestic_priority_ratio": 0.70, "longitude": -77.04, "latitude": -12.05},
  {"code": "NZL", "name": "New Zealand", "region_id": "asia_pacific", "production_mbpd": 0.03, "consumption_mbpd": 0.15, "refining_capacity_mbpd": 0.12, "strategic_reserves_mb": 5, "reserve_release_rate_mbpd": 0.01, "is_refining_hub": false, "domestic_priority_ratio": 0.70, "longitude": 174.78, "latitude": -41.29},
  {"code": "BGD", "name": "Bangladesh", "region_id": "south_asia", "production_mbpd": 0.01, "consumption_mbpd": 0.12, "refining_capacity_mbpd": 0.03, "strategic_reserves_mb": 0, "reserve_release_rate_mbpd": 0, "is_refining_hub": false, "domestic_priority_ratio": 0.80, "longitude": 90.41, "latitude": 23.81}
]
